City,Cloudiness,Country,Date,Humidity,Lat,Lng,Max Temp,Wind Speed
New Norfolk,75,AU,2020-04-01,87,-42.78,147.06,60.00800000000001,2.23694
Busselton,98,AU,2020-04-01,48,-33.65,115.33,66.00200000000008,13.533487000000001
Mataura,11,NZ,2020-04-01,87,-46.19,168.86,55.004000000000055,1.9908766000000002
Ushuaia,55,AR,2020-04-01,93,-54.8,-68.3,44.6,4.451510600000001
Rocha,60,UY,2020-04-01,88,-34.48,-54.33,64.68800000000005,8.4780026
Atuona,15,PF,2020-04-01,79,-9.8,-139.03,81.64400000000008,10.9386366
East London,75,ZA,2020-04-01,73,-33.02,27.91,69.80000000000001,8.052984
Faanui,43,PF,2020-04-01,76,-16.48,-151.75,82.56200000000007,11.4531328
Rikitea,89,PF,2020-04-01,76,-23.12,-134.97,78.22400000000002,7.918767600000001
Lebu,0,CL,2020-04-01,73,-37.62,-73.65,53.67200000000004,14.607218200000002
Curitibanos,59,BR,2020-04-01,68,-27.28,-50.58,64.83200000000002,4.0936002
Souillac,75,MU,2020-04-01,79,-20.52,57.52,84.2,8.052984
Mar del Plata,90,AR,2020-04-01,100,-38.0,-57.56,66.00200000000008,4.697574
Cape Town,0,ZA,2020-04-01,36,-33.93,18.42,84.99199999999999,14.987498000000002
Punta Arenas,40,CL,2020-04-01,81,-53.15,-70.92,44.6,9.171454
Sola,100,VU,2020-04-01,80,-13.88,167.55,80.88800000000005,12.4373864
Tupã,41,BR,2020-04-01,69,-21.93,-50.51,74.19200000000001,7.627965400000001
Curaçá,61,BR,2020-04-01,63,-8.99,-39.91,79.808,15.233561400000001
Port Alfred,87,ZA,2020-04-01,76,-33.59,26.89,71.99600000000005,1.006623
Vaini,75,TO,2020-04-01,94,-21.2,-175.2,73.4,3.35541
Envira,100,BR,2020-04-01,93,-7.3,-70.22,72.87800000000007,1.8342908
Kandrian,94,PG,2020-04-01,82,-6.22,149.55,79.79000000000002,3.9817532000000004
Port Elizabeth,86,ZA,2020-04-01,53,-33.92,25.57,71.6,11.408394
Hobart,75,AU,2020-04-01,87,-42.88,147.33,60.00800000000001,2.23694
Mahébourg,75,MU,2020-04-01,79,-20.41,57.7,84.2,8.052984
Dunedin,30,NZ,2020-04-01,85,-45.87,170.5,53.99600000000005,5.4357642
Avarua,40,CK,2020-04-01,88,-21.21,-159.78,82.4,13.869028000000002
Madang,95,PG,2020-04-01,83,-5.22,145.8,79.66400000000004,3.8251674
Coyhaique,20,CL,2020-04-01,75,-45.58,-72.07,46.4,4.697574
Bluff,31,NZ,2020-04-01,87,-46.6,168.33,55.004000000000055,1.9908766000000002
Puerto Ayora,75,EC,2020-04-01,78,-0.74,-90.35,80.6,3.35541
Constitución,0,CL,2020-04-01,62,-35.33,-72.42,53.45600000000003,8.231939200000001
Cidreira,83,BR,2020-04-01,81,-30.18,-50.21,73.43600000000006,16.7994194
Lago da Pedra,98,BR,2020-04-01,84,-4.33,-45.17,80.09600000000006,2.7290668
Sechura,95,PE,2020-04-01,76,-5.56,-80.82,74.62400000000002,7.8963982
Matadi,98,CD,2020-04-01,67,-5.82,13.45,88.484,2.3935258000000004
Hermanus,16,ZA,2020-04-01,56,-34.42,19.23,80.00600000000003,11.989998400000001
Samarai,84,PG,2020-04-01,82,-10.62,150.67,80.34800000000003,7.672704200000001
Ambilobe,47,MG,2020-04-01,76,-13.2,49.05,84.93800000000005,5.704197
Kiama,75,AU,2020-04-01,100,-34.68,150.87,69.99800000000002,2.23694
Saint-Paul,75,RE,2020-04-01,66,-21.01,55.27,86.0,3.35541
Saint-Philippe,40,RE,2020-04-01,78,-21.36,55.77,86.0,8.052984
San Fernando del Valle de Catamarca,50,AR,2020-04-01,99,-28.47,-65.79,71.00600000000003,0.8052984
Bredasdorp,38,ZA,2020-04-01,40,-34.53,20.04,75.00200000000008,23.040482000000004
Byron Bay,40,AU,2020-04-01,100,-28.65,153.62,71.99600000000005,4.697574
Wewak,98,PG,2020-04-01,85,-3.55,143.63,80.65400000000005,10.804420200000001
Rio Branco,75,BR,2020-04-01,94,-9.97,-67.81,77.0,3.35541
Pimentel,75,PE,2020-04-01,29,-6.84,-79.93,66.2,6.3081708
Camaná,80,PE,2020-04-01,73,-16.62,-72.71,73.14800000000002,5.7265664
Tocopilla,40,CL,2020-04-01,43,-22.09,-70.2,75.7760000000001,2.7961750000000003
Jutaí,100,BR,2020-04-01,94,-5.18,-68.9,74.12000000000006,1.1855782000000001
Kaitangata,2,NZ,2020-04-01,85,-46.28,169.85,53.99600000000005,2.1027236
Hithadhoo,98,MV,2020-04-01,70,-0.6,73.08,84.07400000000001,10.782050800000002
Caravelas,1,BR,2020-04-01,77,-17.71,-39.25,81.10400000000006,7.1358386000000005
Quatre Cocos,75,MU,2020-04-01,79,-20.21,57.76,84.2,8.052984
Kavieng,100,PG,2020-04-01,78,-2.57,150.8,83.39000000000001,12.817666200000001
Batemans Bay,67,AU,2020-04-01,90,-35.72,150.18,69.99800000000002,8.9924988
Talara,99,PE,2020-04-01,80,-4.58,-81.27,74.75,9.0148682
Caucaia,100,BR,2020-04-01,74,-3.74,-38.65,84.00200000000008,11.408394
Grand Gaube,75,MU,2020-04-01,79,-20.01,57.66,84.2,8.052984
Laela,23,TZ,2020-04-01,53,-8.57,32.05,74.49800000000002,2.7066974
Canutama,100,BR,2020-04-01,93,-6.53,-64.38,76.64000000000001,1.1632088
Xai-Xai,18,MZ,2020-04-01,63,-25.05,33.64,79.57400000000001,14.316416000000002
Burnie,99,AU,2020-04-01,84,-41.07,145.92,60.00800000000001,4.0041226000000005
Arraial do Cabo,75,BR,2020-04-01,69,-22.97,-42.03,82.4,9.171454
Moree,69,AU,2020-04-01,60,-29.47,149.85,71.6,6.934514000000001
Richards Bay,95,ZA,2020-04-01,72,-28.78,32.04,74.858,25.501116000000003
Alyangula,20,AU,2020-04-01,94,-13.85,136.42,78.80000000000001,8.231939200000001
Karratha,100,AU,2020-04-01,39,-20.74,116.85,86.61200000000005,13.488748200000002
Departamento de Maldonado,90,UY,2020-04-01,82,-34.67,-54.92,68.0,9.171454
Seabra,69,BR,2020-04-01,64,-12.42,-41.77,71.07800000000006,7.3595326000000005
Muncar,59,ID,2020-04-01,76,-8.43,114.33,82.72400000000002,6.5318648
Yataity,12,PY,2020-04-01,58,-26.37,-56.07,81.24800000000002,3.4225182000000003
Coolum Beach,51,AU,2020-04-01,91,-26.53,153.1,71.99600000000005,1.006623
Codrington,100,AU,2020-04-01,85,-38.27,141.97,60.656000000000034,5.2568090000000005
Presidencia Roque Sáenz Peña,13,AR,2020-04-01,69,-26.79,-60.44,78.83600000000007,7.5608572
Esperance,90,AU,2020-04-01,82,-33.87,121.9,62.6,10.289924
Pringsewu,97,ID,2020-04-01,84,-5.36,104.97,78.458,0.33554100000000003
Saldanha,0,ZA,2020-04-01,52,-33.01,17.94,84.2,5.816044000000001
Flinders,75,AU,2020-04-01,100,-34.58,150.86,71.99600000000005,2.23694
Waingapu,60,ID,2020-04-01,73,-9.66,120.26,80.78000000000004,2.4158952000000005
Chui,43,UY,2020-04-01,75,-33.7,-53.46,69.99800000000002,13.5558564
Ballina,40,AU,2020-04-01,100,-28.87,153.57,68.0,4.697574
Pando,90,UY,2020-04-01,82,-34.72,-55.95,66.99199999999999,4.697574
Humaitá,100,BR,2020-04-01,92,-7.51,-63.02,77.05400000000006,1.0961006
Tsaratanana,29,MG,2020-04-01,52,-16.78,47.65,87.65600000000003,2.7514362
Mahajanga,20,MG,2020-04-01,70,-15.72,46.32,89.6,10.289924
Rantepao,100,ID,2020-04-01,73,-2.97,119.9,69.674,0.7158208
Castro,66,BR,2020-04-01,53,-24.79,-50.01,68.95400000000006,3.9370144000000002
Bambous Virieux,75,MU,2020-04-01,79,-20.34,57.76,84.2,8.052984
Port Hedland,98,AU,2020-04-01,58,-20.32,118.57,84.2,9.171454
Kismayo,71,SO,2020-04-01,60,-0.36,42.55,88.66400000000004,8.5898496
Kefamenanu,33,ID,2020-04-01,81,-9.45,124.48,73.04000000000002,1.1408394000000002
Urucará,90,BR,2020-04-01,82,-2.54,-57.76,79.84400000000008,1.5882274
Taltal,44,CL,2020-04-01,69,-25.4,-70.48,66.07400000000001,1.1855782000000001
Puerto Nariño,90,CO,2020-04-01,100,-3.77,-70.38,73.4,0.7381902000000001
Pisco,90,PE,2020-04-01,30,-13.7,-76.22,71.6,3.35541
Te Anau,46,NZ,2020-04-01,72,-45.42,167.72,52.10600000000003,0.8276678000000001
Broken Hill,90,AU,2020-04-01,82,-31.95,141.43,68.0,5.816044000000001
Kruisfontein,77,ZA,2020-04-01,59,-34.0,24.73,65.3180000000001,15.3677778
Namatanai,92,PG,2020-04-01,79,-3.67,152.43,81.68000000000004,11.542610400000001
Luganville,100,VU,2020-04-01,87,-15.53,167.17,76.98200000000003,7.9858758000000005
Matiri,57,TZ,2020-04-01,61,-10.75,34.9,74.066,4.809421
Mount Gambier,75,AU,2020-04-01,77,-37.83,140.77,59.0,3.0646078000000005
Sambava,43,MG,2020-04-01,82,-14.27,50.17,83.22800000000007,7.82929
Japura,81,ID,2020-04-01,87,-0.32,102.35,79.88000000000005,2.23694
Chivilcoy,29,AR,2020-04-01,92,-34.9,-60.02,66.99199999999999,4.0041226000000005
Tshikapa,45,CD,2020-04-01,45,-6.42,20.8,94.04600000000005,2.0803542000000004
Carnarvon,98,AU,2020-04-01,73,-24.87,113.63,75.2,18.342908
Benguela,75,AO,2020-04-01,70,-12.58,13.41,84.2,9.171454
Vallenar,25,CL,2020-04-01,42,-28.57,-70.76,71.97800000000007,1.3645334
Airai,82,TL,2020-04-01,75,-8.93,125.41,63.53600000000007,0.782929
Antofagasta,90,CL,2020-04-01,82,-23.65,-70.4,64.4,6.934514000000001
Outjo,0,NA,2020-04-01,28,-20.12,16.15,84.2,3.35541
Plettenberg Bay,81,ZA,2020-04-01,69,-34.05,23.37,65.87600000000009,17.336285
Cabedelo,75,BR,2020-04-01,70,-6.98,-34.83,86.0,13.869028000000002
Kasane,40,BW,2020-04-01,38,-17.82,25.15,89.6,5.816044000000001
Maceió,75,BR,2020-04-01,79,-9.67,-35.74,84.2,8.052984
Itaobim,63,BR,2020-04-01,68,-16.57,-41.83,77.07200000000003,1.7448132000000003
Alta Floresta,95,BR,2020-04-01,100,-9.88,-56.09,78.80000000000001,1.11847
Mossamedes,77,AO,2020-04-01,59,-15.2,12.15,80.07800000000006,11.0057448
Geraldton,100,AU,2020-04-01,68,-28.77,114.6,71.99600000000005,13.869028000000002
Maracás,45,BR,2020-04-01,61,-13.44,-40.43,73.16600000000001,4.697574
Morros,93,BR,2020-04-01,61,-9.45,-46.3,80.40200000000007,10.4241404
Labuhan,81,ID,2020-04-01,76,-6.88,112.21,81.53600000000007,4.3844024
Río Gallegos,79,AR,2020-04-01,86,-51.62,-69.22,39.2,2.23694
Polewali,100,ID,2020-04-01,83,-3.43,119.34,77.77400000000002,2.8185444000000004
Hukuntsi,37,BW,2020-04-01,37,-24.0,21.75,80.6,2.3264176
Natal,20,BR,2020-04-01,79,-5.79,-35.21,84.2,9.171454
Vila Velha,75,BR,2020-04-01,88,-20.33,-40.29,80.99600000000005,3.35541
Kaeo,99,NZ,2020-04-01,92,-35.1,173.78,59.0,4.787051600000001
Manokwari,99,ID,2020-04-01,77,-0.87,134.08,81.01400000000004,4.809421
Córdoba,40,AR,2020-04-01,94,-31.41,-64.18,73.00400000000005,2.23694
Lüderitz,0,NA,2020-04-01,50,-26.65,15.16,75.2,16.105968
Vanimo,86,PG,2020-04-01,85,-2.67,141.3,81.30200000000008,9.2609316
Salinópolis,97,BR,2020-04-01,82,-0.61,-47.36,81.23000000000005,6.554234200000001
Yeppoon,0,AU,2020-04-01,83,-23.13,150.73,73.4,4.697574
Poya,80,NC,2020-04-01,85,-21.35,165.15,75.05600000000004,12.9966214
Vao,50,NC,2020-04-01,78,-22.67,167.48,74.75,15.255930800000002
Jacareacanga,90,BR,2020-04-01,88,-6.22,-57.75,78.80000000000001,2.23694
Saurimo,30,AO,2020-04-01,40,-9.66,20.39,89.9600000000001,0.8947760000000001
Port Moresby,100,PG,2020-04-01,84,-9.44,147.18,76.6760000000001,6.554234200000001
Warmbad,0,NA,2020-04-01,17,-28.45,18.73,83.73200000000003,5.1002232
Port-Gentil,40,GA,2020-04-01,79,-0.72,8.78,87.80000000000001,9.171454
Lakes Entrance,66,AU,2020-04-01,85,-37.88,147.98,59.0,13.5558564
Lorengau,55,PG,2020-04-01,80,-2.02,147.27,82.90400000000005,9.574103200000001
Arica,81,CL,2020-04-01,68,-18.48,-70.3,71.6,1.11847
Iquitos,90,PE,2020-04-01,94,-3.75,-73.25,75.2,3.35541
Kimbe,94,PG,2020-04-01,87,-5.55,150.14,77.234,1.5211192000000002
Otjiwarongo,0,NA,2020-04-01,28,-20.46,16.65,84.2,3.35541
Ulladulla,75,AU,2020-04-01,100,-35.35,150.47,66.2,2.23694
Monte Alegre,97,BR,2020-04-01,97,-2.01,-54.07,73.76000000000008,0.9618842000000001
São José da Coroa Grande,20,BR,2020-04-01,75,-8.9,-35.15,82.81400000000004,12.2360618
Prata,29,BR,2020-04-01,66,-19.31,-48.92,76.892,6.5766036
La Paz,75,BO,2020-04-01,93,-16.5,-68.15,42.8,4.697574
Nokaneng,100,BW,2020-04-01,36,-19.67,22.27,85.82000000000006,4.138339
Malanje,1,AO,2020-04-01,41,-9.54,16.34,86.64800000000002,2.5948504
Port Lincoln,18,AU,2020-04-01,76,-34.73,135.87,63.59000000000002,6.5318648
Gamba,100,GA,2020-04-01,78,-2.65,10.0,84.47000000000006,8.0306146
Capão da Canoa,87,BR,2020-04-01,86,-29.75,-50.01,72.78800000000004,12.4373864
Nchelenge,32,ZM,2020-04-01,56,-9.35,28.73,80.13200000000002,3.6014734000000006
São João da Barra,75,BR,2020-04-01,88,-21.64,-41.05,77.0,2.23694
Tual,92,ID,2020-04-01,71,-5.67,132.75,84.27200000000005,7.806920600000001
Cairns,75,AU,2020-04-01,88,-16.92,145.77,75.2,6.934514000000001
Bengkulu,74,ID,2020-04-01,79,-3.8,102.27,81.0680000000001,2.5501116
Lodja,73,CD,2020-04-01,31,-3.48,23.43,100.07600000000009,0.4026492
Diamantino,2,BR,2020-04-01,71,-14.41,-56.45,78.13399999999999,3.6462122
Pimenta Bueno,96,BR,2020-04-01,86,-11.67,-61.19,77.37800000000007,1.7000744
Shurugwi,0,ZW,2020-04-01,17,-19.67,30.01,82.63399999999999,9.9096442
Correntina,21,BR,2020-04-01,64,-13.34,-44.64,77.73800000000006,5.4581336
São Félix do Xingu,100,BR,2020-04-01,84,-6.64,-51.99,78.49400000000009,0.782929
Yulara,100,AU,2020-04-01,45,-25.24,130.99,84.2,10.289924
El Alto,95,PE,2020-04-01,78,-4.27,-81.21,72.66200000000006,5.6818276
Ancud,40,CL,2020-04-01,100,-41.87,-73.82,44.6,2.23694
Ayacucho,75,PE,2020-04-01,93,-13.16,-74.22,53.6,0.8500372
Pitimbu,75,BR,2020-04-01,70,-7.47,-34.81,86.0,13.869028000000002
Oranjemund,0,NA,2020-04-01,42,-28.55,16.43,71.33000000000004,14.137460800000001
Valdivia,20,CL,2020-04-01,100,-39.81,-73.25,35.6,3.35541
Wagga Wagga,81,AU,2020-04-01,49,-35.12,147.37,69.99800000000002,8.052984
