City,Cloudiness,Country,Date,Humidity,Lat,Lng,Max Temp,Wind Speed
Port Elizabeth,90,ZA,1585709292,93,-33.92,25.57,60.8,10.289924
Mataura,10,NZ,1585709293,69,-46.19,168.86,66.00200000000008,2.9974996000000003
Rikitea,100,PF,1585709294,71,-23.12,-134.97,79.28600000000007,6.039738000000001
Sawtell,90,AU,1585709295,69,-30.38,153.1,80.6,9.171454
Hermanus,6,ZA,1585709295,81,-34.42,19.23,60.314000000000036,12.1242148
Ushuaia,75,AR,1585709076,81,-54.8,-68.3,46.4,10.289924
Broken Hill,75,AU,1585709296,56,-31.95,141.43,71.6,10.289924
Saint-Philippe,40,RE,1585709297,83,-21.36,55.77,75.2,6.934514000000001
Arraial do Cabo,12,BR,1585709297,83,-22.97,-42.03,76.58600000000007,8.1424616
Hithadhoo,93,MV,1585709299,66,-0.6,73.08,83.30000000000001,9.1490846
Busselton,100,AU,1585709300,41,-33.65,115.33,75.99199999999999,2.4830034000000003
Maragogi,69,BR,1585709300,83,-9.01,-35.22,79.32200000000003,7.82929
Punta Arenas,75,CL,1585709027,81,-53.15,-70.92,48.2,18.342908
Esperance,69,AU,1585709302,56,-33.87,121.9,69.80000000000001,5.816044000000001
Chui,56,UY,1585709303,75,-33.7,-53.46,68.21600000000001,13.1755766
Hobart,75,AU,1585709115,55,-42.88,147.33,64.99400000000009,10.289924
Mar del Plata,90,AR,1585709303,63,-38.0,-57.56,66.00200000000008,13.869028000000002
Bredasdorp,10,ZA,1585709303,72,-34.53,20.04,64.4,8.052984
Denpasar,20,ID,1585709252,84,-8.65,115.22,86.0,6.934514000000001
Carnarvon,100,AU,1585709305,57,-24.87,113.63,77.0,14.987498000000002
Batemans Bay,41,AU,1585709306,85,-35.72,150.18,73.00400000000005,4.0041226000000005
Cap Malheureux,75,MU,1585709308,94,-19.98,57.61,78.80000000000001,7.8516594
Juan de Ayolas,64,PY,1585709308,65,-27.4,-56.9,74.80400000000006,4.854159800000001
Atuona,1,PF,1585709308,80,-9.8,-139.03,82.00400000000005,13.6005952
Mahébourg,75,MU,1585709308,94,-20.41,57.7,78.80000000000001,6.956883400000001
Necochea,100,AR,1585709309,78,-38.55,-58.74,60.00800000000001,2.9974996000000003
Faanui,8,PF,1585709309,75,-16.48,-151.75,83.04800000000003,11.721565600000002
Bluff,4,NZ,1585709309,69,-46.6,168.33,66.00200000000008,2.9974996000000003
Maceió,75,BR,1585709037,94,-9.67,-35.74,77.0,4.697574
Singaparna,92,ID,1585709310,53,-7.35,108.11,86.30600000000004,1.6105968
Saint-Pierre,40,RE,1585709310,83,-21.34,55.48,75.2,6.934514000000001
Vaini,20,TO,1585709311,79,-21.2,-175.2,84.2,8.052984
Boyolangu,21,ID,1585709311,67,-8.12,111.89,85.22600000000008,2.348787
Hualmay,100,PE,1585709311,77,-11.1,-77.61,72.75200000000008,4.4962494
Ngunguru,100,NZ,1585709312,75,-35.62,174.5,71.00600000000003,7.0016222
São João da Barra,58,BR,1585709101,83,-21.64,-41.05,76.76600000000002,7.672704200000001
Kerema,100,PG,1585709313,90,-7.96,145.78,76.74800000000002,9.193823400000001
Avarua,75,CK,1585709314,79,-21.21,-159.78,86.0,8.052984
Namatanai,51,PG,1585709315,76,-3.67,152.43,83.19200000000001,10.1109688
Castro,65,BR,1585709315,58,-24.79,-50.01,65.10200000000009,3.7356898000000003
Vondrozo,19,MG,1585709315,87,-22.82,47.28,61.538000000000046,1.4316416
Manggar,68,ID,1585709316,73,-2.88,108.27,84.07400000000001,6.106846200000001
Coquimbo,66,CL,1585709316,93,-29.95,-71.34,59.0,2.23694
Popondetta,86,PG,1585709317,80,-8.75,148.25,81.42800000000007,3.1988242000000002
Kruisfontein,70,ZA,1585709317,84,-34.0,24.73,60.20600000000003,3.9593838000000003
Noumea,40,NC,1585709318,55,-22.28,166.46,86.0,16.105968
Kaitangata,9,NZ,1585709319,82,-46.28,169.85,55.99400000000007,8.008245200000001
East London,96,ZA,1585709321,78,-33.02,27.91,67.04600000000005,17.783673
Touros,40,BR,1585709322,94,-5.2,-35.46,77.0,3.35541
Ahipara,88,NZ,1585709323,67,-35.17,173.17,67.53200000000001,5.4581336
Biak,90,ID,1585709324,71,-0.91,122.88,82.92200000000004,4.048861400000001
New Norfolk,75,AU,1585709324,55,-42.78,147.06,64.99400000000009,10.289924
Auki,30,SB,1585709326,75,-8.77,160.7,84.50600000000003,7.9858758000000005
Souillac,75,MU,1585709327,94,-20.52,57.52,78.80000000000001,5.525241800000001
Río Gallegos,100,AR,1585709329,66,-51.62,-69.22,50.0,5.816044000000001
Comodoro Rivadavia,98,AR,1585709167,50,-45.87,-67.5,55.400000000000006,8.052984
Mount Gambier,100,AU,1585709330,52,-37.83,140.77,69.80000000000001,3.35541
Sorong,74,ID,1585709330,85,-0.88,131.25,83.39000000000001,7.806920600000001
Puerto Ayora,15,EC,1585709330,88,-0.74,-90.35,78.99800000000002,5.010745600000001
Cape Town,20,ZA,1585708512,63,-33.93,18.42,62.6,23.040482000000004
Bambous Virieux,75,MU,1585709335,94,-20.34,57.76,78.80000000000001,7.5161184
Santa Cruz de la Sierra,96,BO,1585709103,88,-17.8,-63.17,77.0,5.816044000000001
Mutoko,0,ZW,1585709337,69,-17.4,32.23,56.94800000000002,2.6843280000000003
Lebu,2,CL,1585709337,77,-37.62,-73.65,55.32800000000007,16.978374600000002
Utete,95,TZ,1585709337,94,-7.99,38.76,74.084,1.4540110000000002
Nabire,94,ID,1585709337,65,-3.37,135.48,87.20600000000003,7.583226600000001
Mareeba,40,AU,1585709338,62,-17.0,145.43,86.0,10.289924
Rio Brilhante,55,BR,1585709338,69,-21.8,-54.55,73.58000000000004,5.525241800000001
Kanye,97,BW,1585709339,42,-24.97,25.33,62.88800000000005,4.115969600000001
Codrington,100,AU,1585709339,52,-38.27,141.97,68.57600000000009,6.3529096
Port Lincoln,78,AU,1585709341,61,-34.73,135.87,65.94800000000004,6.0173686
Tuatapere,0,NZ,1585709341,69,-46.13,167.68,66.00200000000008,2.9974996000000003
Carutapera,98,BR,1585709342,84,-1.2,-46.02,78.90800000000002,4.2054472
Kilindoni,91,TZ,1585709342,76,-7.91,39.67,82.72400000000002,8.1200922
Bahía Blanca,100,AR,1585709343,90,-38.72,-62.27,61.268000000000086,8.6793272
Victor Harbor,75,AU,1585709344,46,-35.57,138.62,71.99600000000005,13.869028000000002
Alofi,100,NU,1585709344,79,-19.06,-169.92,86.0,4.697574
Quatre Cocos,75,MU,1585709345,94,-20.21,57.76,78.80000000000001,7.672704200000001
Pisco,40,PE,1585709346,83,-13.7,-76.22,71.6,3.35541
Jardim,95,BR,1585709346,64,-21.48,-56.14,75.63200000000002,3.8699062000000004
Lastoursville,79,GA,1585709347,88,-0.81,12.73,73.56200000000007,1.0289924000000001
Chiredzi,0,ZW,1585709348,67,-21.05,31.67,62.51000000000008,2.2593094000000002
Balikpapan,20,ID,1585709343,83,-1.27,116.83,82.4,3.35541
Taltal,13,CL,1585709350,70,-25.4,-70.48,65.642,0.9171454
Mpika,3,ZM,1585709350,63,-11.83,31.45,59.05400000000006,3.7580592
Kununurra,0,AU,1585709351,37,-15.77,128.73,96.8,4.697574
Kieta,100,PG,1585709351,71,-6.22,155.63,82.45400000000006,4.7199434
Luena,27,AO,1585709352,66,-11.78,19.92,62.924000000000014,0.2908022
Toamasina,2,MG,1585709352,84,-18.17,49.38,77.48600000000008,9.5964726
Geraldton,75,AU,1585709353,47,-28.77,114.6,77.0,10.289924
Copiapó,59,CL,1585709354,82,-27.37,-70.33,60.8,10.289924
Warmbad,0,NA,1585709354,43,-28.45,18.73,56.3,4.1830778
Coyhaique,75,CL,1585709356,70,-45.58,-72.07,48.2,1.11847
Coruripe,53,BR,1585709091,84,-10.13,-36.18,79.75400000000005,9.775427800000001
Kiunga,68,PG,1585709356,70,-6.12,141.29,87.78200000000001,3.802798
Boyuibe,100,BO,1585709357,64,-20.42,-63.28,72.64400000000008,3.3106712000000003
Flinders,75,AU,1585709311,73,-34.58,150.86,73.4,11.408394
Mossamedes,6,AO,1585709357,71,-15.2,12.15,74.4260000000001,7.471379600000001
Saldanha,0,ZA,1585709358,72,-33.01,17.94,59.0,10.289924
Airai,30,TL,1585709358,54,-8.93,125.41,73.058,3.4225182000000003
Fare,0,PF,1585709359,74,-16.7,-151.02,83.96600000000001,11.766304400000001
Franca,2,BR,1585709362,71,-20.54,-47.4,64.76000000000008,3.1540854
Port Alfred,56,ZA,1585709362,98,-33.59,26.89,62.00600000000003,5.010745600000001
Lorengau,98,PG,1585709364,80,-2.02,147.27,83.24600000000005,11.9452596
Christchurch,3,NZ,1585709108,68,-43.53,172.63,69.00800000000001,6.934514000000001
Kavieng,94,PG,1585709367,78,-2.57,150.8,83.69600000000005,13.958505600000002
Presidencia Roque Sáenz Peña,99,AR,1585709367,80,-26.79,-60.44,75.56000000000009,6.5318648
Venado Tuerto,86,AR,1585709285,86,-33.75,-61.97,71.00600000000003,9.730689
Katete,75,UG,1585709367,58,-0.78,29.75,63.66200000000006,4.0936002
Voh,54,NC,1585709368,69,-20.97,164.7,80.65400000000005,11.2294388
Santa Maria,17,BR,1585709369,75,-29.68,-53.81,70.28600000000007,6.420017800000001
Bengkulu,100,ID,1585709334,65,-3.8,102.27,84.50600000000003,3.0646078000000005
Pangai,66,TO,1585709370,80,-19.8,-174.35,80.34800000000003,8.1424616
Constitución,2,CL,1585709284,69,-35.33,-72.42,56.93000000000004,11.3860246
Majene,100,ID,1585709372,79,-3.54,118.97,83.15600000000003,5.9949992000000005
Port Augusta,90,AU,1585709373,47,-32.5,137.77,77.0,4.697574
Samarai,100,PG,1585709373,82,-10.62,150.67,80.67200000000004,7.5608572
Huambo,3,AO,1585709374,56,-12.78,15.74,58.24400000000007,1.2526864000000002
Buala,37,SB,1585709374,69,-8.14,159.59,85.85600000000002,6.039738000000001
Soyo,78,AO,1585709374,86,-6.13,12.37,80.78000000000004,6.7779282
Luganville,100,VU,1585709375,82,-15.53,167.17,79.934,12.3926476
Ancud,23,CL,1585709375,87,-41.87,-73.82,42.8,3.35541
Pleasant Point,17,NZ,1585709377,92,-44.27,171.13,60.998000000000026,2.9974996000000003
Sola,100,VU,1585709377,85,-13.88,167.55,79.32200000000003,8.6793272
Marataizes,79,BR,1585709378,87,-21.04,-40.82,75.542,5.637088800000001
Belmonte,40,BR,1585709378,88,-15.86,-38.88,77.0,3.35541
Chicama,100,PE,1585709379,68,-7.84,-79.15,75.61400000000003,5.4581336
Santa Fe,1,AR,1585709286,79,-31.63,-60.7,78.99800000000002,7.270055
Caravelas,11,BR,1585709379,87,-17.71,-39.25,77.95400000000006,7.180577400000001
Kokopo,92,PG,1585709380,73,-4.35,152.26,82.83200000000002,5.9502604
Gandajika,96,CD,1585709381,75,-6.75,23.95,67.5680000000001,2.5277422
Kirakira,100,SB,1585709382,77,-10.45,161.92,83.93000000000004,5.927891
Rafaela,35,AR,1585709383,64,-31.25,-61.49,75.00200000000008,1.006623
Iquique,28,CL,1585709384,68,-20.22,-70.14,69.80000000000001,6.934514000000001
Beloha,31,MG,1585709384,90,-25.17,45.05,69.24199999999999,9.059607
Morón,75,AR,1585709384,88,-34.65,-58.62,73.4,12.750558000000002
Mauá,5,BR,1585709385,77,-23.67,-46.46,75.99199999999999,5.816044000000001
Bambanglipuro,69,ID,1585709386,68,-7.95,110.28,84.59600000000006,2.0579848000000003
Dunedin,6,NZ,1585709386,76,-45.87,170.5,60.00800000000001,4.0041226000000005
Manokwari,84,ID,1585709387,78,-0.87,134.08,83.03000000000004,7.672704200000001
Rio Grande,67,BR,1585709358,84,-32.03,-52.1,69.89000000000001,18.588971400000002
Otavi,6,NA,1585709387,55,-19.65,17.33,62.51000000000008,5.8831522000000005
Vanimo,100,PG,1585709388,66,-2.67,141.3,85.35200000000009,6.4423872
Ambilobe,76,MG,1585709389,90,-13.2,49.05,75.11000000000008,2.460634
Manicoré,100,BR,1585709390,94,-5.81,-61.3,77.0,3.35541
Lüderitz,0,NA,1585709391,63,-26.65,15.16,62.6,21.922012000000002
Vallenar,35,CL,1585709392,53,-28.57,-70.76,65.40800000000002,0.2684328
Padang,11,ID,1585709393,56,-0.95,100.35,88.16000000000008,0.8052984
Kupang,40,ID,1585709393,59,-10.17,123.58,93.2,10.289924
Moranbah,3,AU,1585709394,36,-22.0,148.05,87.44000000000003,15.904643400000001
Ambatondrazaka,72,MG,1585709394,74,-17.83,48.42,66.90200000000007,2.0579848000000003
Luanda,40,AO,1585709212,88,-8.84,13.23,78.80000000000001,5.816044000000001
Tamandaré,56,BR,1585709396,82,-8.76,-35.1,80.33000000000004,9.171454
Pelotas,74,BR,1585709397,89,-31.77,-52.34,68.50400000000005,11.318916399999999
Grand Gaube,75,MU,1585709397,94,-20.01,57.66,78.80000000000001,7.8740288000000005
Vao,45,NC,1585709398,78,-22.67,167.48,74.96600000000001,16.463878400000002
Lakes Entrance,0,AU,1585709399,49,-37.88,147.98,73.00400000000005,1.9908766000000002
Tevaitoa,3,PF,1585709401,74,-16.78,-151.5,83.91200000000006,11.9452596
Madang,80,PG,1585709402,62,-5.22,145.8,85.78399999999999,4.2725554
Gweta,78,BW,1585709405,48,-20.18,25.23,73.41800000000009,0.9171454
Mount Isa,0,AU,1585709405,28,-20.73,139.5,93.2,11.408394
Oranjemund,0,NA,1585709407,88,-28.55,16.43,54.89600000000005,7.5384878
Kindu,100,CD,1585709408,85,-2.95,25.95,70.41200000000006,0.5816044
Phalaborwa,32,ZA,1585709409,82,-23.94,31.14,68.0,3.35541
Santiago,80,CL,1585708897,40,-33.46,-70.65,68.0,4.697574
Teófilo Otoni,17,BR,1585709412,84,-17.86,-41.51,70.07000000000006,1.7895520000000003
Mahina,1,PF,1585709412,74,-17.51,-149.49,84.2,2.23694
Reconquista,16,AR,1585709412,94,-29.15,-59.65,69.458,2.9527608000000005
Yulara,100,AU,1585709413,42,-25.24,130.99,86.0,10.289924
Banjar,20,ID,1585709414,79,-8.19,114.97,87.80000000000001,8.052984
Takaka,76,NZ,1585709414,66,-40.85,172.8,69.00800000000001,2.9974996000000003
Beneditinos,99,BR,1585709416,88,-5.45,-42.37,78.80000000000001,6.934514000000001
Opuwo,15,NA,1585709417,37,-18.06,13.84,66.41600000000001,3.8699062000000004
Osorno,1,CL,1585709298,92,-40.57,-73.15,46.13000000000004,2.4382646000000006
Kismayo,5,SO,1585709420,79,-0.36,42.55,83.37200000000004,9.2609316
Trairi,100,BR,1585709420,83,-3.28,-39.27,80.22200000000004,8.052984
Burgersdorp,84,ZA,1585709421,54,-31.0,26.33,56.62400000000001,8.6569578
Puerto Madryn,27,AR,1585709264,60,-42.77,-65.04,59.59400000000008,18.454755000000002
Tsaratanana,38,MG,1585709423,78,-16.78,47.65,73.16600000000001,2.9303914000000004
Tautira,23,PF,1585709424,74,-17.73,-149.15,84.2,2.23694
Honiara,29,SB,1585709424,73,-9.43,159.95,85.64000000000001,5.0331150000000004
Okakarara,0,NA,1585709427,50,-20.58,17.43,62.38399999999999,3.8475368000000003
Isangel,96,VU,1585709428,83,-19.55,169.27,80.13200000000002,14.2493078
